,City,Cloudiness,Country,Date,Humidity,Lat,Lng,Max Temp,Wind Speed
0,Palana,99,RU,1582168711,88,59.12,159.97,-6.25,0.98
1,Vaini,20,TO,1582168711,65,-21.2,-175.2,82.4,10.29
2,Ushuaia,90,AR,1582168696,87,-54.8,-68.3,48.2,24.16
3,Dwarka,0,IN,1582168712,71,22.24,68.97,74.73,10.8
4,Cooma,0,AU,1582168712,48,-36.23,149.13,60.8,10.29
5,Jaru,100,BR,1582168712,95,-10.44,-62.47,75.06,3.09
6,Busselton,0,AU,1582168712,20,-33.65,115.33,89.01,12.97
7,Tasiilaq,68,GL,1582168712,73,65.61,-37.64,21.2,2.24
8,Vao,47,NC,1582168712,73,-22.67,167.48,79.18,8.23
9,Somvarpet,0,IN,1582168713,64,12.6,75.87,66.9,5.08
10,Kushmurun,95,KZ,1582168497,90,52.45,64.63,18.61,16.28
11,Nome,90,US,1582168713,78,64.5,-165.41,8.6,4.7
12,Gucheng,98,CN,1582168714,33,35.91,111.32,48.06,2.64
13,Tiksi,100,RU,1582168714,84,71.69,128.87,-3.59,10.49
14,Banjarmasin,65,ID,1582168714,64,-3.32,114.59,86.47,5.55
15,Hermanus,71,ZA,1582168714,97,-34.42,19.23,66.0,13.89
16,Le Mans,90,FR,1582168714,87,48.0,0.2,48.2,6.93
17,Gambiran,100,ID,1582168715,91,-6.8,111.5,75.38,6.98
18,Nikolskoye,90,RU,1582168715,93,59.7,30.79,36.0,4.47
19,Tibati,24,CM,1582168715,26,6.47,12.63,61.66,3.2
20,Waingapu,100,ID,1582168715,77,-9.66,120.26,83.3,14.88
21,Kaniama,100,CD,1582168715,97,-7.57,24.18,65.91,2.17
22,Liusha,100,CN,1582168716,81,27.21,108.59,46.54,3.96
23,Mataura,91,NZ,1582168707,58,-46.19,168.86,73.15,7.96
24,Guipavas,90,FR,1582168716,87,48.44,-4.4,48.2,23.04
25,Kavieng,0,PG,1582168716,73,-2.57,150.8,83.61,12.08
26,Weihe,100,CN,1582168717,43,33.0,105.32,36.63,9.6
27,Sampit,41,ID,1582168717,57,-2.53,112.95,89.49,4.0
28,Peniche,5,PT,1582168717,100,39.36,-9.38,54.0,3.36
29,Santa Maria,36,BR,1582168717,100,-29.68,-53.81,66.2,2.24
30,Sabzevar,100,IR,1582168449,41,36.21,57.68,43.2,3.24
31,Qaanaaq,0,GL,1582168718,52,77.48,-69.36,-12.44,3.96
32,Reconquista,90,AR,1582168718,55,-29.15,-59.65,69.48,4.74
33,Hithadhoo,55,MV,1582168718,78,-0.6,73.08,83.34,16.64
34,Butaritari,100,KI,1582168718,81,3.07,172.79,82.9,14.63
35,Tahta,0,EG,1582168719,61,26.77,31.5,50.0,4.7
36,Chapais,1,CA,1582168661,75,49.78,-74.85,-18.4,3.36
37,Albany,75,US,1582168577,45,42.6,-73.97,26.6,8.05
38,Dingle,100,PH,1582168719,82,11.0,122.67,76.5,17.9
39,Mogzon,100,RU,1582168720,80,51.74,111.96,11.44,2.21
40,Bengkulu,5,ID,1582168720,57,-3.8,102.27,86.67,3.13
41,Dikson,100,RU,1582168720,95,73.51,80.55,12.02,9.82
42,Dakoro,0,NE,1582168720,23,14.51,6.76,62.69,12.66
43,East London,100,ZA,1582168720,94,-33.02,27.91,69.8,8.05
44,Lavrentiya,96,RU,1582168720,83,65.58,-171.0,-8.97,9.17
45,Kattivakkam,40,IN,1582168721,69,13.22,80.32,81.0,3.36
46,Bluff,100,NZ,1582168721,51,-46.6,168.33,71.33,7.43
47,Puerto Ayora,27,EC,1582168721,87,-0.74,-90.35,78.15,7.54
48,Srednekolymsk,82,RU,1582168722,95,67.45,153.68,-14.6,5.28
49,Rikitea,21,PF,1582168722,79,-23.12,-134.97,78.62,13.11
50,Port Alfred,35,ZA,1582168722,95,-33.59,26.89,69.01,6.78
51,Sao Filipe,56,CV,1582168722,61,14.9,-24.5,72.28,21.0
52,Antalaha,51,MG,1582168723,77,-14.9,50.28,80.89,7.99
53,Sittwe,0,MM,1582168723,60,20.15,92.9,70.14,2.3
54,Yellowknife,75,CA,1582168723,84,62.46,-114.35,8.6,10.29
55,Deputatsky,100,RU,1582168723,93,69.3,139.9,-4.32,3.58
56,Marrakesh,26,MA,1582168723,76,31.63,-8.01,51.48,1.01
57,Katsuura,75,JP,1582168724,50,35.13,140.3,55.99,3.36
58,Jamestown,90,US,1582168589,73,42.1,-79.24,27.0,5.82
59,Bichena,60,ET,1582168724,58,10.45,38.2,55.31,4.14
60,Ojinaga,90,MX,1582168724,76,29.57,-104.42,57.2,3.4
61,Brewster,1,US,1582168724,46,41.4,-73.62,35.6,4.7
62,Dunedin,95,NZ,1582168633,75,-45.87,170.5,64.0,3.0
63,Muros,40,ES,1582168725,100,42.78,-9.06,46.0,6.93
64,Pevek,100,RU,1582168725,98,69.7,170.31,-14.46,5.28
65,Avera,90,US,1582168725,88,33.19,-82.53,53.6,11.41
66,Cape Town,75,ZA,1582168492,100,-33.93,18.42,69.01,18.34
67,Kalakamati,33,BW,1582168726,83,-20.59,27.31,63.68,6.49
68,Porto-Novo,20,BJ,1582168677,88,6.5,2.6,82.4,2.24
69,Omboue,100,GA,1582168726,95,-1.57,9.26,75.36,3.13
70,Barrow,90,US,1582168502,77,71.29,-156.79,-2.2,6.93
71,Abu Samrah,0,SY,1582168726,90,35.3,37.18,46.49,11.16
72,Khatanga,0,RU,1582168706,83,71.97,102.5,-11.25,3.94
73,Hilo,90,US,1582168727,83,19.73,-155.09,73.0,12.57
74,Mubende,19,UG,1582168727,95,0.56,31.39,62.96,1.48
75,Salinas,1,US,1582168727,81,36.68,-121.66,57.99,5.82
76,Mar del Plata,20,AR,1582168511,63,-38.0,-57.56,63.0,10.29
77,Boyolangu,100,ID,1582168727,87,-8.12,111.89,77.67,4.38
78,Punta Arenas,75,CL,1582168728,68,-53.15,-70.92,46.4,10.29
79,Hong Kong,20,HK,1582168518,45,22.29,114.16,69.01,10.29
80,Bandarbeyla,100,SO,1582168728,73,9.49,50.81,77.38,7.96
81,Chhor,0,PK,1582168728,25,25.52,69.77,66.88,1.05
82,Landazuri,74,CO,1582168491,87,6.22,-73.81,67.5,4.23
83,Vardo,75,NO,1582168729,85,70.37,31.11,19.4,19.46
84,Hobart,40,AU,1582168619,42,-42.88,147.33,69.01,17.22
85,Preobrazheniye,0,RU,1582168729,48,42.9,133.91,30.22,3.27
86,Mackay,16,AU,1582168729,70,-21.15,149.2,93.99,10.29
87,Vetlanda,24,SE,1582168730,97,57.43,15.08,35.01,3.36
88,Chokurdakh,72,RU,1582168730,90,70.63,147.92,-11.54,7.09
89,Bethel,1,US,1582168730,46,41.37,-73.41,35.6,4.7
90,Kentau,0,KZ,1582168730,46,43.52,68.51,30.88,4.99
91,Kisangani,65,CD,1582168730,96,0.52,25.2,71.15,0.92
92,Koumac,88,NC,1582168731,64,-20.57,164.28,81.1,1.48
93,Varangaon,0,IN,1582168731,25,21.02,75.9,74.17,5.46
94,Brae,100,GB,1582168731,81,60.4,-1.35,46.4,23.04
95,Salisbury,100,GB,1582168680,93,51.07,-1.8,48.99,16.11
96,Souillac,40,MU,1582168732,78,-20.52,57.52,78.8,8.05
97,Castro,94,BR,1582168732,97,-24.79,-50.01,66.65,2.51
98,Tahoua,0,NE,1582168732,15,14.89,5.27,66.2,9.17
99,Padang,43,ID,1582168545,61,-0.95,100.35,79.05,7.72
100,Balabac,67,PH,1582168733,73,7.99,117.06,82.6,21.9
101,Emilio Carranza,0,MX,1582168733,85,19.97,-96.61,74.79,3.49
102,Maracas,45,BR,1582168733,96,-13.44,-40.43,67.17,5.35
103,Aklavik,90,CA,1582168733,92,68.22,-135.01,14.0,5.82
104,San Quintin,0,MX,1582168614,90,30.48,-115.95,57.42,11.12
105,Banda Aceh,6,ID,1582168734,65,5.56,95.32,83.28,8.63
106,Saskylakh,0,RU,1582168734,97,71.92,114.08,-8.79,5.61
107,Tomatlan,0,MX,1582168734,75,19.93,-105.25,70.36,1.95
108,Vieques,40,PR,1582168734,83,18.43,-65.83,78.8,13.53
109,Severo-Kuril'sk,77,RU,1582168734,82,50.68,156.12,20.97,12.59
110,Tuktoyaktuk,90,CA,1582168735,85,69.45,-133.04,10.4,6.93
111,Evensk,64,RU,1582168735,74,61.95,159.23,-3.33,3.8
112,Maravatio de Ocampo,5,MX,1582168735,42,19.9,-100.45,66.2,3.78
113,Kapaa,75,US,1582168701,61,22.08,-159.32,78.8,8.05
114,Broken Hill,89,AU,1582168735,37,-31.95,141.43,71.6,10.29
115,Guerrero Negro,0,MX,1582168735,80,27.98,-114.06,60.53,11.56
116,Willmar,1,US,1582168495,64,45.12,-95.04,-0.4,3.36
117,Ribeira Grande,40,PT,1582168736,54,38.52,-28.7,53.6,5.82
118,Qashyr,100,KZ,1582168736,90,53.07,76.1,23.67,18.61
119,Dawei,0,MM,1582168736,58,14.08,98.2,80.37,3.89
120,Cururupu,100,BR,1582168736,99,-1.83,-44.87,74.37,2.44
121,Longyearbyen,75,SJ,1582168714,60,78.22,15.64,8.6,21.92
122,Naze,75,JP,1582168737,55,28.37,129.48,64.4,4.7
123,Xingcheng,5,CN,1582168737,46,40.62,120.72,37.71,5.14
124,Saint-Philippe,75,RE,1582168710,50,-21.36,55.77,77.0,5.82
125,Den Helder,75,NL,1582168738,93,52.96,4.76,48.2,21.92
126,Saint George,1,US,1582168519,26,37.1,-113.58,48.2,16.11
127,Kybartai,100,LT,1582168738,91,54.64,22.76,37.04,8.57
128,Meadow Lake,40,US,1582168528,52,34.8,-106.54,50.0,6.93
129,Innisfail,96,AU,1582168533,55,-17.53,146.03,88.0,3.0
130,Minolos,90,PH,1582168739,78,10.1,123.47,80.6,16.11
131,Roald,100,NO,1582168739,60,62.58,6.13,45.0,13.87
132,Atuona,27,PF,1582168739,79,-9.8,-139.03,81.99,17.56
133,Chui,0,UY,1582168740,88,-33.7,-53.46,67.8,4.56
134,Yurimaguas,100,PE,1582168740,76,-5.9,-76.08,76.41,1.45
135,Riohacha,50,CO,1582168740,77,11.54,-72.91,78.66,9.73
136,Ati,0,TD,1582168740,25,13.22,18.34,67.14,9.69
137,San Luis,0,AR,1582168741,29,-33.3,-66.34,74.57,17.0
138,Henties Bay,100,NA,1582168741,93,-22.12,14.28,64.99,2.15
139,Podborany,75,CZ,1582168741,91,50.23,13.41,35.01,4.7
140,Avarua,100,CK,1582168716,94,-21.21,-159.78,78.8,10.29
141,Vanavara,100,RU,1582168741,93,60.34,102.28,12.72,6.44
142,Viedma,0,AR,1582168742,46,-40.81,-63.0,56.68,9.24
143,Qasigiannguit,100,GL,1582168742,70,68.82,-51.19,-0.4,3.36
144,Kumul,98,CN,1582168742,50,42.8,93.45,26.44,4.03
145,Baghdad,40,IQ,1582168743,87,33.34,44.4,55.4,6.93
146,Thompson,75,CA,1582168587,50,55.74,-97.86,6.8,12.75
147,Rosetta,40,EG,1582168743,87,31.4,30.42,51.8,3.36
148,Ponta do Sol,40,PT,1582168743,59,32.67,-17.1,60.8,13.87
149,Mahebourg,40,MU,1582168744,78,-20.41,57.7,78.8,8.05
150,Unity,0,CA,1582168744,85,52.45,-109.17,7.0,15.01
151,Gornji Vakuf,75,BA,1582168744,100,43.94,17.59,35.6,6.93
152,Mareeba,93,AU,1582168745,55,-17.0,145.43,95.0,8.05
153,Calama,63,CL,1582168745,45,-22.47,-68.93,64.4,8.05
154,Keta,20,GH,1582168745,88,5.92,0.99,82.4,6.93
155,Kirkland Lake,1,CA,1582168609,83,48.14,-80.04,-7.6,5.82
156,New Norfolk,40,AU,1582168745,42,-42.78,147.06,69.01,17.22
157,Ketchikan,90,US,1582168746,93,55.34,-131.65,37.4,3.36
158,Sabro,67,DK,1582168746,93,56.21,10.03,37.4,9.17
159,Mabaruma,3,GY,1582168746,97,8.2,-59.78,69.42,2.13
160,Deer Lake,90,CA,1582168746,85,49.17,-57.43,23.0,23.04
161,Vilhena,100,BR,1582168746,87,-12.74,-60.15,71.11,0.22
162,San Patricio,40,MX,1582168746,73,19.22,-104.7,77.0,6.93
163,Nata,20,PA,1582168701,69,8.33,-80.52,82.4,5.82
164,Bathsheba,40,BB,1582168747,69,13.22,-59.52,77.0,21.92
165,Shamary,100,RU,1582168747,97,57.34,58.22,27.57,8.21
166,Vestmannaeyjar,80,IS,1582168747,83,63.44,-20.27,37.08,24.81
167,Lebu,0,CL,1582168728,64,-37.62,-73.65,55.83,8.79
168,Iranshahr,25,IR,1582168748,47,27.2,60.68,55.4,4.7
169,Honiara,40,SB,1582168748,74,-9.43,159.95,87.8,9.17
170,Cherskiy,98,RU,1582168748,95,68.75,161.3,-19.08,4.68
171,Camacha,75,PT,1582168748,67,33.08,-16.33,60.8,11.41
172,Tyukalinsk,100,RU,1582168748,95,55.87,72.2,27.72,14.79
173,Alyangula,90,AU,1582168749,94,-13.85,136.42,75.2,6.93
174,Bulungu,100,CD,1582168749,97,-4.55,18.6,69.37,1.59
175,Sambava,42,MG,1582168749,97,-14.27,50.17,71.92,2.01
176,Santana do Livramento,0,BR,1582168749,71,-30.89,-55.53,65.8,3.62
177,Lyuban,16,BY,1582168750,90,52.8,28.0,32.99,5.01
178,Nanortalik,100,GL,1582168716,67,60.14,-45.24,16.95,6.38
179,Bredasdorp,58,ZA,1582168750,88,-34.53,20.04,69.8,9.17
180,Uribia,35,CO,1582168750,75,11.71,-72.27,78.26,9.66
181,Colac,100,AU,1582168750,95,-38.33,143.58,63.0,1.01
182,Logrono,0,ES,1582168750,100,42.47,-2.45,37.99,1.12
183,Hasaki,75,JP,1582168751,54,35.73,140.83,57.0,2.24
184,Conceicao do Araguaia,100,BR,1582168751,88,-8.26,-49.26,77.0,3.36
185,Tuatapere,100,NZ,1582168751,45,-46.13,167.68,72.84,5.82
186,Coahuayana Viejo,40,MX,1582168751,83,18.73,-103.68,71.6,4.07
187,Marsh Harbour,4,BS,1582168752,84,26.54,-77.06,75.27,8.05
188,Kalmunai,100,LK,1582168752,76,7.42,81.82,80.01,13.11
189,Taoudenni,80,ML,1582168752,13,22.68,-3.98,66.36,5.73
190,Seryshevo,0,RU,1582168752,81,51.09,128.38,1.45,6.8
191,Timaru,100,NZ,1582168752,77,-44.4,171.25,66.99,10.0
192,Yangi Marg`ilon,0,UZ,1582168753,85,40.43,71.72,26.6,2.24
193,Talnakh,75,RU,1582168753,85,69.49,88.4,14.0,26.84
194,Upernavik,100,GL,1582168753,95,72.79,-56.15,0.81,7.09
195,Bontang,100,ID,1582168753,69,0.13,117.5,83.88,14.12
196,Bambanglipuro,100,ID,1582168753,78,-7.95,110.28,79.32,6.58
197,Cap Malheureux,40,MU,1582168754,78,-19.98,57.61,78.8,8.05
198,Cidreira,0,BR,1582168527,78,-30.18,-50.21,75.31,13.18
199,Tigil,100,RU,1582168754,93,57.8,158.67,-3.84,2.44
200,Le Pont-de-Claix,26,FR,1582168754,100,45.12,5.71,37.99,4.7
201,Pangnirtung,3,CA,1582168754,87,66.15,-65.71,-32.1,1.01
202,Zarate,0,AR,1582168576,68,-34.1,-59.03,72.0,2.24
203,Riverton,1,US,1582168474,68,40.52,-111.94,30.2,8.05
204,Pontes e Lacerda,100,BR,1582168756,95,-15.23,-59.34,73.9,1.79
205,Torbay,75,CA,1582168756,80,47.67,-52.73,32.0,27.51
206,Guhagar,100,IN,1582168756,57,17.48,73.19,78.39,1.86
207,Nadym,100,RU,1582168757,98,65.53,72.52,32.38,5.46
208,Hays,90,US,1582168757,93,30.05,-98.03,48.2,10.29
209,Myitkyina,100,MM,1582168757,48,25.38,97.4,70.83,3.49
210,Havelock,90,US,1582168757,45,34.88,-76.9,48.99,6.93
211,Laas,75,IT,1582168757,72,46.62,10.7,30.0,1.12
212,Yulara,98,AU,1582168758,12,-25.24,130.99,86.0,13.87
213,Kruisfontein,33,ZA,1582168758,47,-34.0,24.73,74.61,5.93
214,Vega de Alatorre,0,MX,1582168758,85,20.03,-96.63,74.79,3.49
215,Cayenne,75,GF,1582168758,74,4.93,-52.33,78.8,10.29
216,Kalmar,90,SE,1582168758,90,56.66,16.36,34.0,5.82
217,San Cristobal,40,VE,1582168759,62,7.77,-72.22,84.2,2.24
218,Namatanai,5,PG,1582168759,74,-3.67,152.43,83.77,11.95
219,Ayan,85,RU,1582168759,71,56.45,138.17,3.69,6.6
220,Jalu,0,LY,1582168759,73,29.03,21.55,52.18,6.22
221,Nouadhibou,0,MR,1582168564,82,20.93,-17.03,64.4,18.34
222,Belmonte,1,BR,1582168730,88,-15.86,-38.88,77.0,3.36
223,Manaus,75,BR,1582168760,88,-3.1,-60.02,80.6,3.36
224,Yarim,5,YE,1582168760,83,14.3,44.38,53.62,3.0
225,Cabo San Lucas,5,MX,1582168586,50,22.89,-109.91,75.2,6.64
226,Mogwase,73,ZA,1582168760,56,-25.18,27.27,70.48,6.42
227,Stary Krym,100,UA,1582168760,97,45.03,35.1,39.2,3.94
228,Takhatpur,74,IN,1582168761,21,22.15,81.87,70.45,5.17
229,Santa Rosa,40,PH,1582168576,51,14.31,121.11,86.0,14.99
230,Lorengau,96,PG,1582168761,74,-2.02,147.27,83.3,13.69
231,Maymyo,0,MM,1582168761,37,22.03,96.47,71.6,8.05
232,Setermoen,100,NO,1582168761,91,68.86,18.35,6.01,16.11
233,Broome,1,US,1582168762,78,42.25,-75.83,21.99,3.36
234,Meulaboh,5,ID,1582168762,82,4.14,96.13,79.72,6.17
235,Kavaratti,20,IN,1582168746,74,10.57,72.64,82.4,7.2
236,Ust'-Kulom,100,RU,1582168762,95,61.69,53.69,30.88,7.49
237,Laguna,1,US,1582168762,50,38.42,-121.42,59.0,3.27
238,Sechura,59,PE,1582168763,84,-5.56,-80.82,74.64,6.22
239,Kaitangata,86,NZ,1582168763,80,-46.28,169.85,63.0,10.0
240,Kenitra,75,MA,1582168763,72,34.26,-6.58,59.0,9.17
241,Chingirlau,100,KZ,1582168763,93,51.09,54.08,29.97,8.97
242,Ortona,87,IT,1582168763,71,42.35,14.4,50.0,11.41
243,Peleduy,100,RU,1582168764,83,59.63,112.74,8.91,7.49
244,Binzhou,1,CN,1582168764,45,37.37,118.02,50.72,5.64
245,Tsiroanomandidy,100,MG,1582168764,96,-18.77,46.03,67.96,0.34
246,Voh,0,NC,1582168764,71,-20.97,164.7,81.01,10.0
247,Solnechnyy,100,RU,1582168765,90,50.72,136.63,10.89,4.09
248,Bongandanga,0,CD,1582168765,97,1.5,21.05,70.14,2.53
249,Kiryat Gat,40,IL,1582168765,93,31.61,34.76,57.0,5.82
250,Palmer,1,US,1582168765,42,42.16,-72.33,30.2,16.11
251,Troitsko-Pechorsk,100,RU,1582168765,95,62.71,56.2,30.6,7.07
252,Port Elizabeth,70,ZA,1582168766,93,-33.92,25.57,66.2,3.36
253,Redlands,5,US,1582168492,51,34.06,-117.18,69.8,4.7
254,Nogliki,100,RU,1582168766,83,51.83,143.17,10.33,6.85
255,Darhan,100,MN,1582168766,92,49.49,105.92,12.54,2.82
256,Quatre Cocos,40,MU,1582168766,78,-20.21,57.76,78.8,8.05
257,Saint-Augustin,100,CA,1582168767,87,51.23,-58.65,23.77,19.44
258,Barcelona,20,ES,1582168767,81,41.39,2.16,48.0,10.29
259,Biloela,5,AU,1582168767,45,-24.42,150.5,91.24,4.05
260,Kununurra,100,AU,1582168767,50,-15.77,128.73,95.0,8.05
261,Abdanan,100,IR,1582168767,95,32.99,47.42,48.33,6.15
262,Kutum,73,SD,1582168768,40,14.2,24.67,52.9,5.03
263,Hobyo,73,SO,1582168768,88,5.35,48.53,75.42,7.52
264,Nyurba,100,RU,1582168768,91,63.28,118.33,6.75,7.65
265,Codrington,99,AU,1582168768,71,-38.27,141.97,58.44,11.7
266,Port-Cartier,75,CA,1582168768,49,50.03,-66.87,-2.2,26.4
267,Agadez,0,NE,1582168769,27,19.75,10.25,56.95,9.48
268,Christchurch,100,NZ,1582168676,64,-43.53,172.63,68.0,14.99
269,Fare,96,PF,1582168769,76,-16.7,-151.02,83.37,17.81
270,Sao Joao da Barra,99,BR,1582168769,82,-21.64,-41.05,78.06,18.9
271,Yining,0,CN,1582168769,59,29.04,114.56,58.59,1.88
272,Flinders,4,AU,1582168770,46,-34.58,150.86,77.0,8.05
273,Praia,100,CV,1582168770,85,14.92,-23.51,68.45,16.53
274,Enid,90,US,1582168770,44,36.4,-97.88,43.0,12.75
275,Katherine,75,AU,1582168770,59,-14.47,132.27,91.4,9.17
276,Baruun-Urt,100,MN,1582168770,88,46.68,113.28,19.04,10.2
277,Swan Hill,77,AU,1582168770,27,-35.34,143.55,73.56,11.25
278,Thomaston,90,US,1582168771,93,32.89,-84.33,54.0,8.05
279,Nguru,0,NG,1582168771,29,12.88,10.45,62.38,9.37
280,Garoowe,100,SO,1582168771,82,8.41,48.48,69.55,10.11
281,High Prairie,0,CA,1582168771,86,55.43,-116.49,25.84,5.68
282,Moerai,100,PF,1582168771,77,-22.43,-151.33,81.81,10.94
283,Iqaluit,40,CA,1582168705,59,63.75,-68.51,-31.0,2.24
284,Luderitz,64,NA,1582168717,96,-26.65,15.16,63.95,15.35
285,Goundam,18,ML,1582168772,12,16.41,-3.67,71.62,8.79
286,Ankang,100,CN,1582168772,46,32.68,109.02,48.0,4.0
287,Kautokeino,24,NO,1582168772,72,69.01,23.04,2.73,7.56
288,Bambous Virieux,40,MU,1582168772,78,-20.34,57.76,78.8,8.05
289,Athenry,75,IE,1582168773,93,53.3,-8.74,46.4,12.75
290,George Town,20,MY,1582168763,55,5.41,100.34,86.0,6.93
291,Ucluelet,92,CA,1582168528,84,48.93,-125.55,42.01,3.4
292,Novyy Urengoy,100,RU,1582168773,98,66.08,76.63,32.18,8.41
293,Skowhegan,1,US,1582168773,52,44.77,-69.72,21.0,17.22
294,Tateyama,75,JP,1582168774,58,34.98,139.87,57.0,2.24
295,Dumas,90,US,1582168774,51,35.87,-101.97,44.6,4.7
296,Chokwe,0,MZ,1582168774,94,-24.53,32.98,73.38,5.06
297,Kodiak,90,US,1582168737,80,57.79,-152.41,35.6,19.46
298,Chandler,20,US,1582168774,29,33.31,-111.84,70.0,3.36
299,Capari,79,MK,1582168775,84,41.06,21.18,38.41,3.51
300,Lagoa,0,PT,1582168694,64,39.05,-27.98,54.7,17.69
301,Luban,100,PL,1582168775,84,51.12,15.29,39.0,3.0
302,Portland,1,US,1582168334,39,45.52,-122.68,51.8,14.99
303,Norman Wells,75,CA,1582168776,78,65.28,-126.83,8.6,5.82
304,Tahe,0,CN,1582168776,65,52.33,124.73,11.86,6.51
305,Ilulissat,100,GL,1582168718,70,69.22,-51.1,-0.4,3.36
306,Urumqi,75,CN,1582168776,63,43.8,87.6,26.6,4.47
307,Ardabil,100,IR,1582168620,91,38.25,48.29,34.34,8.03
308,Teya,100,RU,1582168777,87,60.38,92.63,19.24,9.4
309,Buin,0,CL,1582168777,40,-33.73,-70.75,73.4,10.29
310,Itarema,100,BR,1582168777,94,-2.92,-39.92,74.84,3.4
311,Bulandshahr,97,IN,1582168777,62,28.4,77.85,61.21,11.39
312,Batagay,64,RU,1582168777,84,67.63,134.63,-10.95,3.58
313,Khalkhal,100,IR,1582168777,88,37.62,48.53,32.52,4.03
314,Ayagoz,100,KZ,1582168778,97,47.97,80.44,11.28,7.4
315,Esperance,73,AU,1582168778,46,-33.87,121.9,73.4,11.41
316,Birjand,40,IR,1582168778,21,32.87,59.22,41.0,9.17
317,Tripoli,65,LY,1582168778,72,32.88,13.19,59.27,19.48
318,Ust'-Shonosha,100,RU,1582168778,97,61.15,41.34,32.63,8.32
319,Pemberton,0,CA,1582168779,73,50.32,-122.8,18.45,1.61
320,College,90,US,1582168568,85,64.86,-147.8,18.0,5.82
321,Nemuro,75,JP,1582168779,43,43.32,145.57,33.8,6.93
322,Klaksvik,100,FO,1582168724,74,62.23,-6.59,37.4,31.09
323,Methoni,75,GR,1582168779,87,36.82,21.7,55.99,14.7
324,Petropavlovsk-Kamchatsky,0,RU,1582168780,35,53.05,158.65,23.0,4.47
325,Zdvinsk,100,RU,1582168780,95,54.7,78.66,28.81,16.02
326,Myrtle Beach,90,US,1582168769,70,33.69,-78.89,50.0,5.82
327,Te Anau,92,NZ,1582168780,71,-45.42,167.72,61.57,1.21
328,Severo-Yeniseyskiy,100,RU,1582168780,91,60.37,93.04,18.16,12.84
329,Beringovskiy,0,RU,1582168746,85,63.05,179.32,-11.72,18.63
330,Sonoita,0,MX,1582168781,31,31.85,-112.83,64.99,4.45
331,Kieta,26,PG,1582168781,77,-6.22,155.63,83.88,20.92
332,Puerto Padre,20,CU,1582168781,83,21.2,-76.6,75.2,11.41
333,Tabou,89,CI,1582168782,95,4.42,-7.35,76.64,2.66
334,Olinda,40,BR,1582168782,78,-8.01,-34.86,82.4,5.82
335,Kalemie,4,CD,1582168782,93,-5.95,29.19,63.43,2.28
336,Arraial do Cabo,100,BR,1582168748,88,-22.97,-42.03,77.0,14.99
337,Knysna,40,ZA,1582168782,93,-34.04,23.05,66.2,1.12
338,Acajutla,0,SV,1582168782,75,13.59,-89.83,82.87,6.44
339,Walvis Bay,100,NA,1582168783,93,-22.96,14.51,64.99,7.34
340,Okha,100,RU,1582168783,86,53.57,142.95,7.11,6.8
341,Makakilo City,90,US,1582168783,78,21.35,-158.09,80.01,10.29
342,Touros,40,BR,1582168696,94,-5.2,-35.46,77.0,5.82
343,Kosh-Agach,56,RU,1582168783,85,50.0,88.67,-5.51,1.48
344,Clyde River,90,CA,1582168783,83,70.47,-68.59,-13.0,17.22
345,Uvira,40,CD,1582168784,88,-3.41,29.15,51.1,2.06
346,Arona,0,ES,1582168621,67,28.1,-16.68,63.0,13.87
347,Ust'-Ilimsk,100,RU,1582168784,90,58.0,102.66,18.3,11.01
348,Galle,0,LK,1582168784,81,6.04,80.22,77.25,5.26
349,Praia da Vitoria,40,PT,1582168785,66,38.73,-27.07,53.6,22.08
350,Road Town,20,VG,1582168646,78,18.42,-64.62,77.0,10.29
351,Lingyuan,46,CN,1582168785,48,41.24,119.4,36.0,5.77
352,Prachuap Khiri Khan,0,TH,1582168785,63,11.82,99.78,80.4,2.48
353,Pacific Grove,1,US,1582168786,81,36.62,-121.92,55.99,5.23
354,Espinosa,8,BR,1582168786,91,-14.93,-42.82,66.63,6.31
355,Chu,0,KZ,1582168786,54,43.6,73.76,18.0,4.0
356,Ugoofaaru,0,MV,1582168786,73,5.67,73.0,81.37,17.45
357,Oranjemund,98,NA,1582168786,89,-28.55,16.43,66.6,6.73
358,Kungurtug,100,RU,1582168787,75,50.6,97.52,3.94,0.27
359,Bafq,100,IR,1582168787,40,31.61,55.41,55.74,2.71
360,Soyo,91,AO,1582168787,86,-6.13,12.37,75.18,3.31
361,Morondava,76,MG,1582168787,96,-20.28,44.28,74.84,3.33
362,Rafaela,0,AR,1582168651,52,-31.25,-61.49,72.0,2.98
363,Carberry,5,CA,1582168788,69,49.87,-99.36,-11.2,8.05
364,Shizunai,69,JP,1582168788,76,42.33,142.37,27.3,8.32
365,Grindavik,90,IS,1582168788,75,63.84,-22.43,35.6,21.92
366,Narsaq,86,GL,1582168788,46,60.92,-46.05,6.8,9.17
367,Cermik,75,TR,1582168788,100,38.14,39.45,33.8,5.82
368,Mweka,78,CD,1582168789,99,-4.85,21.57,69.1,0.78
369,Ust-Nera,100,RU,1582168789,98,64.57,143.2,-22.47,4.23
370,Redmond,1,US,1582168649,34,47.67,-122.12,48.2,5.82
371,Kalangala,20,UG,1582168789,77,-0.31,32.23,72.28,8.28
372,Gamba,100,GA,1582168789,90,-2.65,10.0,77.68,3.85
373,Comodoro Rivadavia,0,AR,1582168770,55,-45.87,-67.5,60.8,3.36
374,Sitka,90,US,1582168790,80,57.05,-135.33,39.2,12.75
375,Linkou,0,CN,1582168790,71,45.3,130.28,19.62,8.19
376,Porto Walter,97,BR,1582168790,94,-8.27,-72.74,73.09,1.99
377,Pisco,75,PE,1582168790,88,-13.7,-76.22,73.4,17.22
378,Dustlik,0,UZ,1582168790,53,40.52,68.04,33.49,3.38
379,Ixtapa,5,MX,1582168722,88,20.7,-105.2,73.99,0.85
380,Svetlaya,2,RU,1582168791,52,46.54,138.33,24.31,9.78
381,Isangel,75,VU,1582168714,70,-19.55,169.27,84.2,9.17
382,Ghugus,0,IN,1582168791,68,19.93,79.13,74.39,9.78
383,Linxia,100,CN,1582168791,77,35.6,103.21,18.73,4.76
384,Ocean Springs,90,US,1582168759,82,30.41,-88.83,57.2,10.29
385,Tutoia,100,BR,1582168792,94,-2.76,-42.27,74.68,1.79
386,Leshukonskoye,96,RU,1582168792,94,64.9,45.76,29.84,7.16
387,Gravdal,71,NO,1582168792,67,68.12,13.5,32.9,21.27
388,Jiayuguan,60,CN,1582168792,33,39.82,98.3,28.85,13.44
389,Uray,100,RU,1582168792,94,60.12,64.78,29.55,7.58
390,Liverpool,75,GB,1582168782,93,53.41,-2.98,50.0,16.11
391,Nishihara,40,JP,1582168793,49,26.18,127.76,69.8,5.82
392,Conway,75,US,1582168660,52,35.09,-92.44,46.4,14.99
393,Port Macquarie,75,AU,1582168643,57,-31.43,152.92,84.0,14.99
394,Port Hardy,75,CA,1582168793,67,50.7,-127.42,33.8,3.36
395,Nacala,5,MZ,1582168704,95,-14.54,40.67,74.32,3.22
396,Hamilton,1,US,1582168656,60,39.18,-84.53,34.0,3.69
397,Saint-Pierre,75,RE,1582168794,50,-21.34,55.48,77.0,5.82
398,Eufaula,90,US,1582168794,82,31.89,-85.15,62.6,5.03
399,Majene,33,ID,1582168794,60,-3.54,118.97,86.56,3.18
400,Hualmay,100,PE,1582168794,79,-11.1,-77.61,71.96,4.21
401,Portree,100,GB,1582168626,88,57.41,-6.19,41.0,1.99
402,Sept-Iles,75,CA,1582168681,49,50.2,-66.38,-2.2,26.4
403,Karratha,0,AU,1582168795,79,-20.74,116.85,85.23,6.89
404,Luan,90,CH,1582168795,80,46.36,6.98,37.99,1.12
405,Monte Carmelo,100,BR,1582168795,94,-18.72,-47.5,68.27,4.05
406,Sai Buri,20,TH,1582168796,74,6.7,101.62,82.4,8.05
407,Perth,97,AU,1582168502,31,-31.93,115.83,90.0,14.99
408,Sioux Lookout,5,CA,1582168796,69,50.1,-91.92,-7.6,4.7
409,Srandakan,100,ID,1582168796,78,-7.94,110.25,79.32,6.58
410,Sayyan,5,YE,1582168796,78,15.17,44.32,53.24,4.99
411,Alta Floresta,100,BR,1582168728,92,-9.88,-56.09,73.56,1.54
412,Coyhaique,0,CL,1582168797,70,-45.58,-72.07,46.4,5.82
413,Koraput,0,IN,1582168688,66,18.82,82.72,71.8,4.36
414,Pizarro,19,CO,1582168797,85,4.95,-77.37,81.54,9.44
415,La Goulette,40,TN,1582168760,71,36.82,10.3,57.2,9.17
416,Kadoshkino,89,RU,1582168797,97,54.03,44.42,29.48,11.3
417,Babstovo,0,RU,1582168798,75,48.12,132.48,13.42,10.38
418,Faanui,100,PF,1582168798,76,-16.48,-151.75,82.81,18.1
419,Itoman,40,JP,1582168798,49,26.12,127.67,69.8,5.82
420,Karpogory,100,RU,1582168798,96,64.0,44.45,29.7,7.0
421,Tairua,0,NZ,1582168798,68,-37.02,175.85,82.99,8.99
422,Rudnogorsk,100,RU,1582168799,92,57.26,103.75,14.32,9.1
423,Presidencia Roque Saenz Pena,0,AR,1582168799,55,-26.79,-60.44,71.85,3.58
424,Fenoarivo,75,MG,1582168799,93,-18.93,47.44,66.2,6.93
425,Ciudad Lazaro Cardenas,11,MX,1582168799,72,17.96,-102.2,73.24,1.3
426,Smolenka,98,RU,1582168799,60,52.14,113.5,8.6,6.71
427,Santiago,0,CL,1582168800,43,-33.46,-70.65,71.6,6.93
428,Carnarvon,75,AU,1582168800,58,-24.87,113.63,86.0,10.29
429,Cabedelo,75,BR,1582168781,94,-6.98,-34.83,77.0,13.87
430,Zaysan,89,KZ,1582168800,86,47.47,84.87,18.7,3.76
431,Sorland,69,NO,1582168801,68,67.67,12.69,35.96,19.75
432,Ponta Delgada,20,PT,1582168801,62,37.73,-25.67,53.6,12.75
433,Tromso,20,NO,1582168801,63,69.65,18.96,26.6,23.04
434,Ahipara,93,NZ,1582168709,82,-35.17,173.17,70.68,11.3
435,Baoshan,100,CN,1582168801,73,46.56,131.42,18.86,12.5
436,Geraldton,90,AU,1582168771,69,-28.77,114.6,78.8,5.82
437,Maniitsoq,20,GL,1582168735,66,65.42,-52.9,4.37,8.08
438,Bria,15,CF,1582168802,57,6.54,21.99,71.35,0.83
439,Kuminskiy,100,RU,1582168802,98,58.67,66.57,29.39,4.12
440,Saint Anthony,1,US,1582168802,59,45.02,-93.22,3.2,9.17
441,Hokitika,100,NZ,1582168802,77,-42.72,170.97,63.77,10.16
442,Lydenburg,97,ZA,1582168803,91,-25.1,30.46,71.01,1.83
443,Severnoye,100,RU,1582168803,96,56.35,78.36,30.34,7.45
444,Atar,0,MR,1582168803,15,20.52,-13.05,69.01,9.19
445,Salalah,75,OM,1582168699,78,17.02,54.09,71.6,3.36
446,Muli,6,MV,1582168804,78,2.92,73.57,81.36,15.93
447,Provideniya,100,RU,1582168800,65,64.38,-173.3,5.0,11.18
448,Glendive,1,US,1582168594,92,47.11,-104.71,12.0,6.15
449,Tilichiki,0,RU,1582168804,87,60.47,166.1,-12.12,8.61
450,Zhezkazgan,75,KZ,1582168804,91,47.8,67.71,1.4,4.47
451,Kahului,75,US,1582168539,73,20.89,-156.47,78.8,19.46
452,Tucurui,100,BR,1582168805,93,-3.77,-49.67,74.86,6.26
453,Hochstadt,90,DE,1582168805,93,49.25,8.21,45.0,9.17
454,Takoradze,44,GH,1582168805,94,4.88,-1.76,77.32,2.89
455,San Alberto,13,CO,1582168806,48,7.76,-73.39,86.07,5.41
456,Sarangani,0,PH,1582168806,75,5.4,125.46,80.56,27.67
457,Eldorado,100,BR,1582168806,92,-23.79,-54.28,74.61,2.19
458,Rairangpur,40,IN,1582168806,72,22.27,86.18,62.6,6.62
459,Anito,47,PH,1582168806,79,12.45,125.29,79.75,23.73
460,Constitucion,0,CL,1582168696,39,-35.33,-72.42,60.98,5.64
461,Inuvik,90,CA,1582168807,92,68.35,-133.72,14.0,5.82
462,Ransang,24,PH,1582168807,72,8.96,117.58,81.66,15.55
463,Kondinskoye,96,RU,1582168807,96,59.65,67.41,23.22,7.43
464,Garden City,40,US,1582168807,49,42.33,-83.33,25.0,9.17
465,Vostok,100,RU,1582168808,87,46.49,135.88,11.05,13.29
466,Hambantota,20,LK,1582168808,83,6.12,81.12,78.8,8.05
467,Navahrudak,37,BY,1582168806,91,53.6,25.83,32.68,7.02
468,Kangalassy,96,RU,1582168808,73,62.35,129.96,-29.2,4.47
469,Fengrun,67,CN,1582168808,56,39.83,118.12,39.2,0.92
470,Mirny,100,RU,1582168756,84,62.54,113.96,1.4,8.95
471,Nara,75,JP,1582168809,53,34.69,135.8,52.0,2.24
472,Ancud,0,CL,1582168809,76,-41.87,-73.82,48.2,11.41
473,Pitimbu,75,BR,1582168809,100,-7.47,-34.81,75.2,6.93
474,Saldanha,25,ZA,1582168761,88,-33.01,17.94,66.2,10.29
475,Rawson,0,AR,1582168534,51,-43.3,-65.1,60.75,15.28
476,Zeya,0,RU,1582168810,73,53.75,127.27,1.22,3.76
477,Fairbanks,90,US,1582168531,85,64.84,-147.72,18.0,5.82
478,Nioro,55,GM,1582168796,35,13.35,-15.75,70.3,3.47
479,Alagir,74,RU,1582168810,55,43.04,44.22,31.62,2.91
480,Iquique,100,CL,1582168810,68,-20.22,-70.14,71.6,6.93
481,Zhengjiatun,0,CN,1582168811,38,43.51,123.51,30.88,6.91
482,Vila Franca do Campo,20,PT,1582168811,62,37.72,-25.43,53.6,12.75
483,Tiznit,0,MA,1582168811,50,29.58,-9.5,58.89,5.19
484,Banjar,40,ID,1582168811,79,-8.19,114.97,86.0,8.05
485,Sola,75,VU,1582168812,84,-13.88,167.55,86.0,11.36
486,Oussouye,92,SN,1582168556,88,12.48,-16.55,73.4,2.24
487,Northview,20,US,1582168812,57,43.05,-85.6,21.2,6.93
488,Guanica,40,PR,1582168812,83,17.97,-66.91,77.0,9.17
489,Alofi,75,NU,1582168773,78,-19.06,-169.92,80.6,16.11
490,Gobabis,100,NA,1582168813,77,-22.45,18.97,70.09,5.23
491,Opuwo,100,NA,1582168813,36,-18.06,13.84,64.33,1.9
492,Bol,0,TD,1582168813,37,13.46,14.71,66.11,15.43
493,Caravelas,0,BR,1582168813,83,-17.71,-39.25,80.56,10.11
494,Sovetskiy,86,RU,1582168813,94,61.36,63.58,19.8,5.08
495,Ordzhonikidze,94,KZ,1582168813,90,52.44,61.74,20.28,13.65
496,Luziania,75,BR,1582168658,88,-16.25,-47.95,71.6,9.17
497,Port Augusta,100,AU,1582168814,55,-32.5,137.77,75.0,11.41
498,Glace Bay,20,CA,1582168814,49,46.2,-59.96,28.0,24.16
499,Yumen,100,CN,1582168814,44,40.28,97.2,25.52,22.06
500,Santo Tomas,20,PH,1582168814,48,14.11,121.14,86.0,18.34
501,Pecos,40,US,1582168815,93,31.42,-103.49,42.8,5.82
502,Coquimbo,0,CL,1582168726,87,-29.95,-71.34,59.0,5.82
503,Olafsvik,100,IS,1582168815,82,64.89,-23.71,34.47,46.15
504,Arbroath,75,GB,1582168815,87,56.56,-2.59,50.0,18.34
505,Monrovia,75,LR,1582168815,94,6.3,-10.8,75.2,5.88
506,Muisne,89,EC,1582168815,92,0.6,-80.03,76.93,2.68
507,Batagay-Alyta,89,RU,1582168804,85,67.8,130.41,-7.58,5.77
508,Ostrovnoy,75,RU,1582168774,86,68.05,39.51,5.22,7.47
509,Humaita,100,BR,1582168816,90,-7.51,-63.02,75.36,1.9
510,Man,33,CI,1582168816,97,7.41,-7.55,69.12,2.37
511,Kiunga,99,PG,1582168816,71,-6.12,141.29,87.87,5.01
512,Tahara,75,JP,1582168817,61,34.67,137.27,55.99,6.93
513,Manche,90,FR,1582168817,81,49.0,-1.17,48.2,12.75
514,Avanigadda,0,IN,1582168817,83,16.02,80.92,73.4,7.74
515,Gualeguaychu,0,AR,1582168817,68,-33.01,-58.52,71.01,4.0
516,Wanning,96,CN,1582168817,79,18.8,110.4,71.13,11.23
517,Arlit,1,NE,1582168708,22,18.74,7.39,61.92,8.68
518,Tecate,0,MX,1582168818,57,32.57,-116.63,61.0,5.82
519,Pangai,75,TO,1582168818,83,-19.8,-174.35,77.0,18.34
520,Damaturu,67,NG,1582168818,38,11.75,11.96,63.45,9.44
521,Wanaka,93,NZ,1582168818,52,-44.7,169.15,66.15,6.55
522,Longyan,0,CN,1582168819,55,25.11,117.02,65.21,1.7
523,Dalvik,90,IS,1582168819,97,65.97,-18.53,35.6,11.41
524,Kalawit,1,PH,1582168819,66,8.07,122.52,82.81,19.28
525,Kpandae,0,GH,1582168683,56,8.47,-0.01,76.86,4.27
526,Ciudad del Carmen,19,MX,1582168744,92,18.63,-91.83,75.45,4.03
527,Virginia Beach,1,US,1582168324,56,36.85,-75.98,42.8,8.88
528,Jinchang,100,CN,1582168820,36,38.5,102.17,23.22,12.55
529,Raudeberg,100,NO,1582168820,73,61.99,5.14,43.0,26.4
530,Kodino,100,RU,1582168820,88,63.72,39.64,28.29,9.57
531,Jumla,99,NP,1582168821,39,29.27,82.18,40.21,2.04
532,Gopalganj,100,IN,1582168821,39,26.47,84.43,66.83,3.38
533,Agadir,0,MA,1582168821,100,30.42,-9.6,51.8,1.59
534,Port Hueneme,1,US,1582168821,76,34.15,-119.2,57.99,3.36
535,Saint-Joseph,75,RE,1582168821,50,-21.37,55.62,77.0,5.82
536,Aljezur,0,PT,1582168821,90,37.32,-8.8,55.99,4.0
537,Seoul,1,KR,1582168787,56,37.57,126.98,48.2,3.36
538,Batemans Bay,0,AU,1582168822,62,-35.72,150.18,73.0,5.99
539,Abalak,100,RU,1582168822,98,58.13,68.59,32.41,6.69
540,Yar-Sale,100,RU,1582168822,85,66.83,70.83,15.3,4.94
541,Khedbrahma,0,IN,1582168823,33,24.03,73.05,68.04,1.23
542,Hwange,0,ZW,1582168823,93,-18.37,26.5,64.92,3.06
543,Lata,0,PT,1582168823,100,40.16,-8.33,54.0,3.36
544,Polonnaruwa,38,LK,1582168823,74,7.93,81.0,77.97,8.55
545,Corner Brook,90,CA,1582168595,85,48.97,-57.95,23.0,23.04
546,Taveta,20,KE,1582168805,94,-3.4,37.67,68.0,1.7
547,Tual,100,ID,1582168824,82,-5.67,132.75,80.58,15.7
548,Abha,95,SA,1582168824,82,18.22,42.51,57.2,9.17
549,Philadelphia,1,US,1582168639,58,39.95,-75.16,37.4,6.8
550,Dabhol,100,IN,1582168746,57,17.6,73.17,78.39,1.86
551,Airai,43,TL,1582168695,69,-8.93,125.41,79.9,3.06
552,Lodwar,32,KE,1582168825,46,3.12,35.6,83.62,4.9
553,Inhambane,66,MZ,1582168825,81,-23.86,35.38,79.74,9.66
554,Karaton,40,ID,1582168825,88,-6.34,106.1,80.6,5.82
555,Cheremukhovo,42,RU,1582168825,90,60.35,59.99,21.07,3.31
556,Tautira,20,PF,1582168826,66,-17.73,-149.15,86.0,14.99
557,Lianzhou,27,CN,1582168826,59,24.78,112.38,63.64,1.07
558,Arrondissement de Limoges,90,FR,1582168826,100,45.75,1.33,42.01,1.12
559,Fortuna,1,US,1582168826,93,40.6,-124.16,48.0,0.89
560,Arandis,100,NA,1582168826,93,-22.42,14.97,64.99,3.96
561,Kodinsk,100,RU,1582168827,92,58.69,99.18,18.64,9.33
562,Qingquan,0,CN,1582168827,41,30.45,115.26,57.34,5.01
563,San Felipe,68,VE,1582168683,94,10.34,-68.74,72.75,2.37
564,Dayong,0,CN,1582168827,63,25.02,118.29,60.8,6.71
565,Mayo,1,US,1582168827,45,38.89,-76.51,43.0,8.05
566,Carthage,40,TN,1582168828,71,36.86,10.33,57.2,9.17
567,Newport,90,GB,1582168828,93,51.59,-3.0,50.0,12.75
568,Sirnak,99,TR,1582168828,92,37.52,42.46,38.14,7.9
569,Nikki,0,BJ,1582168828,18,9.94,3.21,70.18,5.79
570,Benguela,100,AO,1582168828,81,-12.58,13.41,78.93,3.56
571,Tonantins,80,BR,1582168829,96,-2.87,-67.8,75.45,1.01
572,Maridi,100,SS,1582168829,51,4.92,29.47,74.79,1.21
573,Podgornoye,100,RU,1582168829,86,51.73,39.15,33.8,6.71
574,Manokwari,23,ID,1582168829,67,-0.87,134.08,81.81,10.07
575,Phichit,0,TH,1582168829,54,16.25,100.42,93.0,3.36
576,Berbera,99,SO,1582168829,76,10.44,45.01,76.78,1.7
577,Matara,0,LK,1582168796,64,5.95,80.54,79.79,4.92
578,Half Moon Bay,1,US,1582168771,93,37.46,-122.43,57.99,3.36
579,Kalisz,100,PL,1582168830,91,51.76,18.09,36.0,1.99
580,Ayr,75,GB,1582168830,87,55.46,-4.63,50.0,20.8
581,Byron Bay,90,AU,1582168830,58,-28.65,153.62,86.0,18.34
582,Greenwood,90,US,1582168831,81,34.17,-82.12,48.99,4.7
583,Buchanan,75,LR,1582168831,94,5.88,-10.05,75.2,2.15
584,Belyy Yar,100,RU,1582168831,68,53.6,91.39,28.4,15.66
585,Price,1,US,1582168712,45,39.6,-110.81,26.01,6.93
586,Uyemskiy,90,RU,1582168831,92,64.47,40.85,30.2,11.18
587,Buala,19,SB,1582168832,66,-8.14,159.59,87.13,12.24
588,Krasnosel'kup,100,RU,1582168753,96,65.7,82.47,25.32,12.97
589,Najran,14,SA,1582168832,39,17.49,44.13,66.2,8.5
590,Vizinga,100,RU,1582168832,98,61.07,50.1,32.18,6.26
